[
  {
    "name": "Forssan Luontomuseo",
    "link": "https://museot.fi/museohaku/index.php?museo_id=21049",
    "city": "Forssa",
    "address": " Wahreninkatu 4, A-rappu, Kehr\u00e4\u00e4m\u00f6 (Kirjastotalo)",
    "hours": {
      "opening_hours": {
        "Ma": "Suljettu",
        "Ti": "Suljettu",
        "Ke": "12:00-16:00",
        "To": "Suljettu",
        "Pe": "12:00-16:00",
        "La": "10:00-14:00",
        "Su": "12:00-16:00"
      }
    },
    "services": [
      {
        "0": "Kokoushuone"
      },
      {
        "1": "Lastenhoitotila"
      },
      {
        "2": "Leikkitila/tila perheille"
      },
      {
        "3": "Museokauppa"
      },
      {
        "4": "Myyntipiste"
      },
      {
        "5": "Pys\u00e4k\u00f6intipaikka"
      },
      {
        "6": "Tila omien ev\u00e4iden sy\u00f6nnille"
      }
    ]
  },
  {
    "name": "Friitalan Nahkamuseo",
    "link": "https://museot.fi/museohaku/index.php?museo_id=22095",
    "city": "Ulvila",
    "address": " Friitalantie 11 28400 Ulvila",
    "hours": {
      "opening_hours": {
        "Ma": "Suljettu",
        "Ti": "Suljettu",
        "Ke": "Suljettu",
        "To": "Suljettu",
        "Pe": "Suljettu",
        "La": "Suljettu",
        "Su": "Suljettu"
      }
    },
    "services": [
      {
        "0": "Kahvila"
      },
      {
        "1": "Myyntipiste"
      },
      {
        "2": "Pys\u00e4k\u00f6intipaikka"
      }
    ]
  },
  {
    "name": "Galleri Elverket ",
    "link": "https://museot.fi/museohaku/index.php?museo_id=12022018",
    "city": "Raasepori",
    "address": " Gustav Wasas gata/Kustaa Vaasan katu 11,",
    "hours": {
      "Ma": "Suljettu",
      "Ti": "11:00-17:00",
      "Ke": "11:00-17:00",
      "To": "11:00-17:00",
      "Pe": "11:00-17:00",
      "La": "11:00-17:00",
      "Su": "11:00-17:00"
    },
    "services": [
      {
        "0": "Esteet\u00f6n sis\u00e4\u00e4np\u00e4\u00e4sy"
      },
      {
        "1": "Esteet\u00f6n wc"
      },
      {
        "2": "Tilattavissa opastuksia erityisryhmille"
      }
    ]
  },
  {
    "name": "Helin\u00e4 Rautavaaran museo",
    "link": "https://museot.fi/museohaku/index.php?museo_id=21981",
    "city": "Espoo",
    "address": "  Entressen kauppakeskus, Siltakatu 11, 02770 Espoo",
    "hours": {
      "opening_hours": {
        "Ma": "Suljettu",
        "Ti": "11:00-19:00",
        "Ke": "11:00-19:00",
        "To": "11:00-20:00",
        "Pe": "11:00-19:00",
        "La": "12:00-18:00",
        "Su": "12:00-16:00"
      }
    },
    "services": [
      {
        "0": "Museokauppa"
      },
      {
        "1": "Pys\u00e4k\u00f6intipaikka"
      }
    ]
  },
  {
    "name": "Helsingin kaupunginmuseo",
    "link": "https://museot.fi/museohaku/index.php?museo_id=21099",
    "city": "Helsinki",
    "address": " Aleksanterinkatu 16, 00170 Helsinki",
    "hours": {
      "Ma": "11:00-19:00",
      "Ti": "11:00-19:00",
      "Ke": "11:00-19:00",
      "To": "11:00-19:00",
      "Pe": "11:00-19:00",
      "La": "11:00-17:00",
      "Su": "11:00-17:00"
    },
    "services": [
      {
        "0": "Kahvila"
      },
      {
        "1": "Kokoushuone"
      },
      {
        "2": "Lastenhoitotila"
      },
      {
        "3": "Leikkitila/tila perheille"
      },
      {
        "4": "Museokauppa"
      },
      {
        "5": "Oleskelutila istumapaikoilla"
      },
      {
        "6": "Tila omien ev\u00e4iden sy\u00f6nnille"
      }
    ]
  },
  {
    "name": "Helsingin yliopistomuseo ",
    "link": "https://museot.fi/museohaku/index.php?museo_id=21110",
    "city": "Helsinki",
    "address": " Fabianinkatu 33, 3. krs",
    "hours": {
      "opening_hours": {
        "Ma": "12:00-17:00",
        "Ti": "12:00-17:00",
        "Ke": "12:00-17:00",
        "To": "12:00-17:00",
        "Pe": "Suljettu",
        "La": "Suljettu",
        "Su": "Suljettu"
      }
    },
    "services": [
      {
        "0": "Myyntipiste"
      }
    ]
  },
  {
    "name": "Kajaanin taidemuseo",
    "link": "https://museot.fi/museohaku/index.php?museo_id=21264",
    "city": "Kajaani",
    "address": " Linnankatu 14, 87100 Kajaani",
    "hours": {
      "Ma": "10:00-17:00",
      "Ti": "10:00-17:00",
      "Ke": "11:00-19:00",
      "To": "10:00-17:00",
      "Pe": "Suljettu",
      "La": "Suljettu",
      "Su": "10:00-17:00"
    },
    "services": [
      {
        "0": "Myyntipiste"
      }
    ]
  },
  {
    "name": "Kemin historiallinen museo",
    "link": "https://museot.fi/museohaku/index.php?museo_id=21312",
    "city": "Kemi",
    "address": " Kulttuurikeskus Marina Takalon katu 3 94100 Kemi",
    "hours": {
      "Ma": "Suljettu",
      "Ti": "11:00-18:00",
      "Ke": "11:00-18:00",
      "To": "11:00-18:00",
      "Pe": "11:00-18:00",
      "La": "10:00-15:00",
      "Su": "10:00-15:00"
    },
    "services": [
      {
        "0": "Auditorio"
      },
      {
        "1": "Museokauppa"
      },
      {
        "2": "Myyntipiste"
      },
      {
        "3": "Pys\u00e4k\u00f6intipaikka"
      }
    ]
  },
  {
    "name": "Kemin taidemuseo",
    "link": "https://museot.fi/museohaku/index.php?museo_id=21309",
    "city": "Kemi",
    "address": " Marina Takalon katu 3, 94100 Kemi",
    "hours": {
      "Ma": "Suljettu",
      "Ti": "11:00-18:00",
      "Ke": "11:00-18:00",
      "To": "11:00-18:00",
      "Pe": "11:00-18:00",
      "La": "10:00-15:00",
      "Su": "10:00-15:00"
    },
    "services": [
      {
        "0": "Auditorio"
      },
      {
        "1": "Lastenhoitotila"
      },
      {
        "2": "Museokauppa"
      },
      {
        "3": "Myyntipiste"
      },
      {
        "4": "Pys\u00e4k\u00f6intipaikka"
      }
    ]
  },
  {
    "name": "Keski-Suomen luontomuseo",
    "link": "https://museot.fi/museohaku/index.php?museo_id=21251",
    "city": "Jyv\u00e4skyl\u00e4",
    "address": " Vesilinna, Ihantolantie 5, 40100 Jyv\u00e4skyl\u00e4",
    "hours": {
      "Ma": "Suljettu",
      "Ti": "11:00-18:00",
      "Ke": "11:00-18:00",
      "To": "11:00-18:00",
      "Pe": "11:00-18:00",
      "La": "12:00-17:00",
      "Su": "12:00-17:00"
    },
    "services": [
      {
        "0": "Museokauppa"
      },
      {
        "1": "Myyntipiste"
      },
      {
        "2": "Pys\u00e4k\u00f6intipaikka"
      },
      {
        "3": "Tila omien ev\u00e4iden sy\u00f6nnille"
      }
    ]
  },
  {
    "name": "Keski-Suomen museon k\u00e4sity\u00f6l\u00e4ismuseot",
    "link": "https://museot.fi/museohaku/index.php?museo_id=9021",
    "city": "Jyv\u00e4skyl\u00e4",
    "address": " Toivolan Vanha Piha, Cygnaeuksenkatu 2",
    "hours": {
      "Ma": "11:00-16:00",
      "Ti": "11:00-16:00",
      "Ke": "11:00-16:00",
      "To": "11:00-16:00",
      "Pe": "11:00-16:00",
      "La": "10:00-15:00",
      "Su": "Suljettu"
    },
    "services": [
      {
        "0": "Museokauppa"
      }
    ]
  },
  {
    "name": "Kulttuurihistoriallinen museo",
    "link": "https://museot.fi/museohaku/index.php?museo_id=21250",
    "city": "Jyv\u00e4skyl\u00e4",
    "address": " Seminaarinm\u00e4ki, rakennus S, 40100 Jyv\u00e4skyl\u00e4",
    "hours": {
      "Ma": "Suljettu",
      "Ti": "Suljettu",
      "Ke": "12:00-17:00",
      "To": "12:00-17:00",
      "Pe": "12:00-17:00",
      "La": "12:00-16:00",
      "Su": "Suljettu"
    },
    "services": [
      {
        "0": "Pys\u00e4k\u00f6intipaikka"
      }
    ]
  },
  {
    "name": "Lapuan Taidemuseo",
    "link": "https://museot.fi/museohaku/index.php?museo_id=21040",
    "city": "Lapua",
    "address": " Kulttuurikeskus Vanha Paukku",
    "hours": {
      "Ma": "Suljettu",
      "Ti": "11:00-17:00",
      "Ke": "11:00-17:00",
      "To": "11:00-17:00",
      "Pe": "11:00-17:00",
      "La": "11:00-15:00",
      "Su": "Suljettu"
    },
    "services": [
      {
        "0": "Museokauppa"
      },
      {
        "1": "Pys\u00e4k\u00f6intipaikka"
      }
    ]
  },
  {
    "name": "Nurmeksen museo",
    "link": "https://museot.fi/museohaku/index.php?museo_id=21570",
    "city": "Nurmes",
    "address": " Kirkkokatu 20, 75500 Nurmes",
    "hours": {
      "opening_hours": {
        "Ma": "10:00-17:00",
        "Ti": "10:00-17:00",
        "Ke": "10:00-17:00",
        "To": "10:00-17:00",
        "Pe": "10:00-17:00",
        "La": "Suljettu",
        "Su": "Suljettu"
      }
    },
    "services": [
      {
        "0": "Myyntipiste"
      },
      {
        "1": "Pys\u00e4k\u00f6intipaikka"
      }
    ]
  },
  {
    "name": "Raision museo Harkko",
    "link": "https://museot.fi/museohaku/index.php?museo_id=22024",
    "city": "Raisio",
    "address": " Raision kaupungintalo / Nallinkatu 2, 21200, Raisio",
    "hours": {
      "opening_hours": {
        "Ma": "Suljettu",
        "Ti": "10:00-16:00",
        "Ke": "10:00-19:00",
        "To": "10:00-16:00",
        "Pe": "10:00-16:00",
        "La": "12:00-15:00",
        "Su": "12:00-15:00"
      }
    },
    "services": [
      {
        "0": "Catering"
      },
      {
        "1": "Kokoushuone"
      },
      {
        "2": "Museokauppa"
      },
      {
        "3": "Myyntipiste"
      },
      {
        "4": "Oleskelutila istumapaikoilla"
      },
      {
        "5": "Pys\u00e4k\u00f6intipaikka"
      },
      {
        "6": "Tila omien ev\u00e4iden sy\u00f6nnille"
      }
    ]
  },
  {
    "name": "Riuttalan talonpoikaismuseo",
    "link": "https://museot.fi/museohaku/index.php?museo_id=21293",
    "city": "Karttula",
    "address": " Riuttalantie 719, 72100 Karttula",
    "hours": {
      "opening_hours": {
        "Ma": "Suljettu",
        "Ti": "Suljettu",
        "Ke": "Suljettu",
        "To": "Suljettu",
        "Pe": "12:00-17:00",
        "La": "12:00-17:00",
        "Su": "12:00-17:00"
      }
    },
    "services": [
      {
        "0": "Kahvila"
      },
      {
        "1": "Kokoushuone"
      },
      {
        "2": "Lastenhoitotila"
      },
      {
        "3": "Leikkitila/tila perheille"
      },
      {
        "4": "Museokauppa"
      },
      {
        "5": "Pys\u00e4k\u00f6intipaikka"
      },
      {
        "6": "Ravintola"
      },
      {
        "7": "Tila omien ev\u00e4iden sy\u00f6nnille"
      }
    ]
  },
  {
    "name": "Salon taidemuseo - Veturitalli",
    "link": "https://museot.fi/museohaku/index.php?museo_id=21986",
    "city": "Salo",
    "address": " Mariankatu 14, 24240 Salo",
    "hours": {
      "Ma": "Suljettu",
      "Ti": "Suljettu",
      "Ke": "Suljettu",
      "To": "Suljettu",
      "Pe": "Suljettu",
      "La": "Suljettu",
      "Su": "Suljettu"
    },
    "services": [
      {
        "0": "Museokauppa"
      },
      {
        "1": "Myyntipiste"
      },
      {
        "2": "Pys\u00e4k\u00f6intipaikka"
      }
    ]
  },
  {
    "name": "Suomen Pankin rahamuseo",
    "link": "https://museot.fi/museohaku/index.php?museo_id=22058",
    "city": "Helsinki",
    "address": " Snellmaninkatu 2, 00170 Helsinki",
    "hours": {
      "opening_hours": {
        "Ma": "Suljettu",
        "Ti": "11:00-17:00",
        "Ke": "11:00-17:00",
        "To": "11:00-17:00",
        "Pe": "11:00-17:00",
        "La": "11:00-16:00",
        "Su": "11:00-16:00"
      }
    },
    "services": [
      {
        "0": "Kahvila"
      },
      {
        "1": "Museokauppa"
      }
    ]
  },
  {
    "name": "Taidekoti Kirpil\u00e4",
    "link": "https://museot.fi/museohaku/index.php?museo_id=21152",
    "city": "Helsinki",
    "address": " Pohjoinen Hesperiankatu 7, 6. krs, 00260 Helsinki",
    "hours": {
      "opening_hours": {
        "Ma": "Suljettu",
        "Ti": "Suljettu",
        "Ke": "14:00-18:00",
        "To": "Suljettu",
        "Pe": "Suljettu",
        "La": "Suljettu",
        "Su": "12:00-16:00"
      }
    },
    "services": [
      {
        "0": "Myyntipiste"
      }
    ]
  },
  {
    "name": "Turkansaaren ulkomuseo",
    "link": "https://museot.fi/museohaku/index.php?museo_id=21599",
    "city": "Oulu",
    "address": " Turkansaarentie 165, 90310 Oulu",
    "hours": {
      "Ma": "Suljettu",
      "Ti": "Suljettu",
      "Ke": "Suljettu",
      "To": "Suljettu",
      "Pe": "Suljettu",
      "La": "Suljettu",
      "Su": "Suljettu"
    },
    "services": [
      {
        "0": "Kahvila"
      },
      {
        "1": "Museokauppa"
      },
      {
        "2": "Myyntipiste"
      },
      {
        "3": "Pys\u00e4k\u00f6intipaikka"
      }
    ]
  },
  {
    "name": "Vantaan kaupunginmuseo",
    "link": "https://museot.fi/museohaku/index.php?museo_id=21920",
    "city": "Vantaa",
    "address": " Hertaksentie 1, 01300 Vantaa",
    "hours": {
      "opening_hours": {
        "Ma": "Suljettu",
        "Ti": "11:00-18:00",
        "Ke": "11:00-18:00",
        "To": "11:00-18:00",
        "Pe": "11:00-18:00",
        "La": "11:00-16:00",
        "Su": "11:00-16:00"
      }
    },
    "services": [
      {
        "0": "Museokauppa"
      },
      {
        "1": "Oleskelutila istumapaikoilla"
      },
      {
        "2": "Pys\u00e4k\u00f6intipaikka"
      },
      {
        "3": "Tila omien ev\u00e4iden sy\u00f6nnille"
      }
    ]
  },
  {
    "name": "Vantaan taidemuseo Artsi",
    "link": "https://museot.fi/museohaku/index.php?museo_id=21985",
    "city": "Vantaa",
    "address": " Paalutori 3, 01600 Vantaa",
    "hours": {
      "opening_hours": {
        "Ma": "Suljettu",
        "Ti": "11:00-18:00",
        "Ke": "11:00-18:00",
        "To": "13:00-20:00",
        "Pe": "11:00-18:00",
        "La": "11:00-16:00",
        "Su": "11:00-16:00"
      }
    },
    "services": [
      {
        "0": "Museokauppa"
      },
      {
        "1": "Myyntipiste"
      },
      {
        "2": "Pys\u00e4k\u00f6intipaikka"
      }
    ]
  },
  {
    "name": "Varkauden museot",
    "link": "https://museot.fi/museohaku/index.php?museo_id=21924",
    "city": "Varkaus",
    "address": " Wredenkatu 5 A, 78250 Varkaus",
    "hours": {
      "opening_hours": {
        "Ma": "Suljettu",
        "Ti": "10:00-17:00",
        "Ke": "10:00-17:00",
        "To": "10:00-17:00",
        "Pe": "10:00-16:00",
        "La": "Suljettu",
        "Su": "10:00-16:00"
      }
    },
    "services": [
      {
        "0": "Kokoushuone"
      },
      {
        "1": "Museokauppa"
      },
      {
        "2": "Oleskelutila istumapaikoilla"
      },
      {
        "3": "Pys\u00e4k\u00f6intipaikka"
      }
    ]
  },
  {
    "name": "Ahti Karjalaisen el\u00e4m\u00e4nty\u00f6museo Tupa",
    "link": "https://museot.fi/museohaku/index.php?museo_id=22086",
    "city": "Hirvensalmi",
    "address": " Pit\u00e4j\u00e4ntie 3, 52550 Hirvensalmi",
    "hours": {},
    "services": []
  },
  {
    "name": "Ahti Karjalaisen syntym\u00e4kotimuseo Lepola",
    "link": "https://museot.fi/museohaku/index.php?museo_id=22082",
    "city": "Hirvensalmi",
    "address": " Joutsantie 1729, 52620 Kuitula",
    "hours": {},
    "services": []
  },
  {
    "name": "Alisg\u00e5rden",
    "link": "https://museot.fi/museohaku/index.php?museo_id=21337",
    "city": "Kirkkonummi",
    "address": " Alisg\u00e5rdintie 1, 02520 Kirkkonummi",
    "hours": {},
    "services": []
  },
  {
    "name": "Annalan kotiseutumuseo",
    "link": "https://museot.fi/museohaku/index.php?museo_id=21689",
    "city": "Pyh\u00e4joki",
    "address": " Annalantie 20, 86100 Pyh\u00e4joki",
    "hours": {},
    "services": []
  },
  {
    "name": "Askolan kotiseutumuseo",
    "link": "https://museot.fi/museohaku/index.php?museo_id=22085",
    "city": "Askola",
    "address": " Nalkkilantie 4, Kirkonkyl\u00e4, 07500 Askola",
    "hours": {},
    "services": []
  },
  {
    "name": "Baggen Museo / Rantasalmen Virkistys- ja Sivistyss\u00e4\u00e4ti\u00f6",
    "link": "https://museot.fi/museohaku/index.php?museo_id=9148",
    "city": "-",
    "address": " Kyl\u00e4tie 58 58900 Rantasalmi",
    "hours": {},
    "services": []
  },
  {
    "name": "Bj\u00f6rkboda l\u00e5smuseum (Bj\u00f6rkbodan Lukkomuseo)",
    "link": "https://museot.fi/museohaku/index.php?museo_id=21020",
    "city": "Kemi\u00f6nsaari",
    "address": " 25860 Bj\u00f6rkboda",
    "hours": {
      "opening_hours": {
        "Ma": "Suljettu",
        "Ti": "Suljettu",
        "Ke": "14:00-18:00",
        "To": "Suljettu",
        "Pe": "Suljettu",
        "La": "14:00-18:00",
        "Su": "14:00-18:00"
      }
    },
    "services": [
      {
        "0": "Myyntipiste"
      }
    ]
  },
  {
    "name": "Diamus - Helsingin Diakonissalaitoksen museo ",
    "link": "https://museot.fi/museohaku/index.php?museo_id=22097",
    "city": "Helsinki",
    "address": " Alppikatu 2, P\u00e4\u00e4rakennus, 00530 Helsinki",
    "hours": {
      "Ma": "09:00-15:00",
      "Ti": "09:00-15:00",
      "Ke": "09:00-15:00",
      "To": "09:00-15:00",
      "Pe": "09:00-15:00",
      "La": "Suljettu",
      "Su": "Suljettu"
    },
    "services": [
      {
        "0": "Kahvila"
      },
      {
        "1": "Pys\u00e4k\u00f6intipaikka"
      }
    ]
  },
  {
    "name": "Enonkosken kotiseutumuseo",
    "link": "https://museot.fi/museohaku/index.php?museo_id=21033",
    "city": "Enonkoski",
    "address": " Kirkkotie 2, 58175 Enonkoski",
    "hours": {},
    "services": []
  },
  {
    "name": "Enonteki\u00f6n kotiseutumuseo",
    "link": "https://museot.fi/museohaku/index.php?museo_id=22090",
    "city": "Enonteki\u00f6",
    "address": " Enonteki\u00f6n kirkonkyl\u00e4lt\u00e4 3 km Vuontisj\u00e4rven suuntaan",
    "hours": {},
    "services": []
  },
  {
    "name": "Espoon kaupunginmuseo, Huvilamuseo Villa Rulludd",
    "link": "https://museot.fi/museohaku/index.php?museo_id=22079",
    "city": "Espoo",
    "address": " Rullaniementie 15, 02260 Espoo",
    "hours": {
      "Ma": "Suljettu",
      "Ti": "Suljettu",
      "Ke": "Suljettu",
      "To": "Suljettu",
      "Pe": "Suljettu",
      "La": "Suljettu",
      "Su": "Suljettu"
    },
    "services": []
  },
  {
    "name": "Espoon kaupunginmuseo, Koulumuseo Lagstad",
    "link": "https://museot.fi/museohaku/index.php?museo_id=22059",
    "city": "Espoo",
    "address": " Vanha Lagstadintie 4, 02770 Espoo",
    "hours": {
      "Ma": "Suljettu",
      "Ti": "14:00-18:00",
      "Ke": "Suljettu",
      "To": "Suljettu",
      "Pe": "Suljettu",
      "La": "Suljettu",
      "Su": "Suljettu"
    },
    "services": [
      {
        "0": "Pys\u00e4k\u00f6intipaikka"
      }
    ]
  },
  {
    "name": "Haapaveden kotiseutumuseo",
    "link": "https://museot.fi/museohaku/index.php?museo_id=21055",
    "city": "Haapavesi",
    "address": " Myyrinkuja 1, 86600 Haapavesi",
    "hours": {},
    "services": []
  },
  {
    "name": "Halikon museo",
    "link": "https://museot.fi/museohaku/index.php?museo_id=21057",
    "city": "Salo",
    "address": " Kirkkorinne 7, 24800 Halikko",
    "hours": {
      "Ma": "Suljettu",
      "Ti": "Suljettu",
      "Ke": "Suljettu",
      "To": "11:00-17:00",
      "Pe": "11:00-17:00",
      "La": "11:00-17:00",
      "Su": "11:00-17:00"
    },
    "services": [
      {
        "0": "Pys\u00e4k\u00f6intipaikka"
      }
    ]
  },
  {
    "name": "Harjavallan sairaalan museo",
    "link": "https://museot.fi/museohaku/index.php?museo_id=9113",
    "city": "Harjavalta",
    "address": " Sairaalantie 14 (talo nro 15), 29200 Harjavalta",
    "hours": {},
    "services": []
  },
  {
    "name": "Haukiputaan kotiseutumuseo",
    "link": "https://museot.fi/museohaku/index.php?museo_id=21079",
    "city": "Haukipudas",
    "address": " Kirkkotie 7, 90830 Haukipudas",
    "hours": {},
    "services": []
  },
  {
    "name": "Hein\u00e4veden kotiseutumuseo",
    "link": "https://museot.fi/museohaku/index.php?museo_id=21087",
    "city": "Hein\u00e4vesi",
    "address": " Kirkkotie 3, 79701 Hein\u00e4vesi",
    "hours": {},
    "services": []
  },
  {
    "name": "Helsingin kaupunginmuseo, Ratikkamuseo",
    "link": "https://museot.fi/museohaku/index.php?museo_id=21156",
    "city": "Helsinki",
    "address": " T\u00f6\u00f6l\u00f6nkatu 51 A (Kulttuuritehdas Korjaamo), 00250 Helsinki",
    "hours": {
      "Ma": "11:00-17:00",
      "Ti": "11:00-17:00",
      "Ke": "11:00-17:00",
      "To": "11:00-17:00",
      "Pe": "11:00-17:00",
      "La": "11:00-17:00",
      "Su": "11:00-17:00"
    },
    "services": [
      {
        "0": "Auditorio"
      },
      {
        "1": "Kahvila"
      },
      {
        "2": "Museokauppa"
      },
      {
        "3": "Ravintola"
      }
    ]
  },
  {
    "name": "Helsingin kaupunginmuseo, Ruiskumestarin talo",
    "link": "https://museot.fi/museohaku/index.php?museo_id=21101",
    "city": "Helsinki",
    "address": " Kristianinkatu 12, 00170 Helsinki",
    "hours": {
      "Ma": "Suljettu",
      "Ti": "Suljettu",
      "Ke": "11:00-17:00",
      "To": "11:00-17:00",
      "Pe": "11:00-17:00",
      "La": "11:00-17:00",
      "Su": "11:00-17:00"
    },
    "services": [
      {
        "0": "Museokauppa"
      },
      {
        "1": "Tila omien ev\u00e4iden sy\u00f6nnille"
      }
    ]
  },
  {
    "name": "Helsingin kaupunginmuseo, Sederholmin talo",
    "link": "https://museot.fi/museohaku/index.php?museo_id=21158",
    "city": "Helsinki",
    "address": " Aleksanterinkatu 16-18, 00170 Helsinki",
    "hours": {
      "Ma": "09:00-19:00",
      "Ti": "09:00-19:00",
      "Ke": "09:00-19:00",
      "To": "09:00-19:00",
      "Pe": "09:00-19:00",
      "La": "11:00-17:00",
      "Su": "11:00-17:00"
    },
    "services": [
      {
        "0": "Myyntipiste"
      }
    ]
  },
  {
    "name": "Herraskosken kanavamuseo",
    "link": "https://museot.fi/museohaku/index.php?museo_id=22098",
    "city": "Virrat",
    "address": " Herrasksentie 16, 34800 Virrat",
    "hours": {},
    "services": []
  },
  {
    "name": "Hirvensalmen kotiseutumuseo",
    "link": "https://museot.fi/museohaku/index.php?museo_id=21163",
    "city": "Hirvensalmi",
    "address": " Junnankuja 25, 52550 Hirvensalmi",
    "hours": {},
    "services": []
  },
  {
    "name": "Honkajoen museo",
    "link": "https://museot.fi/museohaku/index.php?museo_id=21166",
    "city": "Honkajoki",
    "address": " Hongontie 8, 38950 Honkajoki",
    "hours": {},
    "services": []
  },
  {
    "name": "Iin kotiseutumuseo ja museokahvila Huilinki",
    "link": "https://museot.fi/museohaku/index.php?museo_id=21185",
    "city": "Ii",
    "address": " Puistotie 4, 91100 Ii",
    "hours": {},
    "services": []
  },
  {
    "name": "Jan Karlsg\u00e5rdens friluftsmuseum (Ulkoilmamuseo Jan Karlsg\u00e5rden )",
    "link": "https://museot.fi/museohaku/index.php?museo_id=21786",
    "city": "Sund",
    "address": " 22520 Kastelholm, \u00c5land",
    "hours": {
      "Ma": "10:00-17:00",
      "Ti": "10:00-17:00",
      "Ke": "10:00-17:00",
      "To": "10:00-17:00",
      "Pe": "10:00-17:00",
      "La": "10:00-17:00",
      "Su": "10:00-17:00"
    },
    "services": [
      {
        "0": "Kahvila"
      },
      {
        "1": "Museokauppa"
      },
      {
        "2": "Ravintola"
      }
    ]
  },
  {
    "name": "Jeppo hembygdsmuseum (Jepuan kotiseutumuseo)",
    "link": "https://museot.fi/museohaku/index.php?museo_id=21892",
    "city": "Uusikaarlepyy",
    "address": " Kyrkv\u00e4gen, 66850 Jepua",
    "hours": {},
    "services": []
  },
  {
    "name": "Jyv\u00e4skyl\u00e4n kunnallistekniikan museo",
    "link": "https://museot.fi/museohaku/index.php?museo_id=9059",
    "city": "Jyv\u00e4skyl\u00e4",
    "address": " K\u00f6nkk\u00f6l\u00e4, Vesangantie 37, Jyv\u00e4skyl\u00e4",
    "hours": {
      "Ma": "Suljettu",
      "Ti": "12:00-16:00",
      "Ke": "12:00-16:00",
      "To": "12:00-16:00",
      "Pe": "12:00-16:00",
      "La": "Suljettu",
      "Su": "Suljettu"
    },
    "services": []
  },
  {
    "name": "J\u00e4ppil\u00e4n kotiseutumuseo",
    "link": "https://museot.fi/museohaku/index.php?museo_id=21259",
    "city": "Pieks\u00e4m\u00e4ki",
    "address": " Kirkkotie 11, 77570 J\u00e4ppil\u00e4",
    "hours": {},
    "services": []
  },
  {
    "name": "Kaarteen sotamuseo",
    "link": "https://museot.fi/museohaku/index.php?museo_id=9153",
    "city": "-",
    "address": " Rakettikaari 30 ",
    "hours": {},
    "services": []
  },
  {
    "name": "Kallion kotiseututalo",
    "link": "https://museot.fi/museohaku/index.php?museo_id=22041",
    "city": "Oulainen",
    "address": " Kuljuntie 587, 86300 Pet\u00e4j\u00e4skoski",
    "hours": {},
    "services": []
  },
  {
    "name": "Kanavamuseo, Saimaan kanavan museo",
    "link": "https://museot.fi/museohaku/index.php?museo_id=21456",
    "city": "Lappeenranta",
    "address": " Sulkuvartijankatu 16, 53300 Lappeenranta",
    "hours": {},
    "services": []
  },
  {
    "name": "Kansainv\u00e4linen kahvikuppimuseo",
    "link": "https://museot.fi/museohaku/index.php?museo_id=21678",
    "city": "Posio",
    "address": " Pentikm\u00e4ki, Maaninkavaarantie 3, 97900 Posio",
    "hours": {},
    "services": []
  },
  {
    "name": "Karhulahden kotiseutumuseo",
    "link": "https://museot.fi/museohaku/index.php?museo_id=21230",
    "city": "Joroinen",
    "address": " Golftie 14, 79600 Joroinen",
    "hours": {
      "Ma": "Suljettu",
      "Ti": "11:00-17:00",
      "Ke": "11:00-17:00",
      "To": "11:00-17:00",
      "Pe": "11:00-17:00",
      "La": "11:00-15:00",
      "Su": "11:00-15:00"
    },
    "services": [
      {
        "0": "Myyntipiste"
      }
    ]
  },
  {
    "name": "Karvian museo- ja ulkomuseoalue",
    "link": "https://museot.fi/museohaku/index.php?museo_id=21294",
    "city": "Karvia",
    "address": " 39930 Karvia",
    "hours": {},
    "services": []
  },
  {
    "name": "Kaunislehdon talomuseo",
    "link": "https://museot.fi/museohaku/index.php?museo_id=21171",
    "city": "Hyrynsalmi",
    "address": " Vanhatie 89, 89400 Hyrynsalmi",
    "hours": {
      "Ma": "Suljettu",
      "Ti": "Suljettu",
      "Ke": "11:00-17:00",
      "To": "11:00-17:00",
      "Pe": "11:00-17:00",
      "La": "11:00-17:00",
      "Su": "11:00-17:00"
    },
    "services": [
      {
        "0": "Myyntipiste"
      },
      {
        "1": "Pys\u00e4k\u00f6intipaikka"
      }
    ]
  },
  {
    "name": "Keih\u00e4slahden n\u00e4yttelytalo",
    "link": "https://museot.fi/museohaku/index.php?museo_id=9152",
    "city": "-",
    "address": " Myllym\u00e4entie 2 34300 Kuru",
    "hours": {},
    "services": []
  },
  {
    "name": "Kemin ty\u00f6l\u00e4ismuseo ja Suomen K\u00e4hert\u00e4j\u00e4museo",
    "link": "https://museot.fi/museohaku/index.php?museo_id=21310",
    "city": "Kemi",
    "address": " Marttalankatu 6, Leinosenpolku, 94200 Kemi",
    "hours": {
      "Ma": "Suljettu",
      "Ti": "Suljettu",
      "Ke": "Suljettu",
      "To": "Suljettu",
      "Pe": "Suljettu",
      "La": "Suljettu",
      "Su": "Suljettu"
    },
    "services": []
  },
  {
    "name": "Keski-Suomen sairaanhoitopiirin sairaalamuseo",
    "link": "https://museot.fi/museohaku/index.php?museo_id=22111",
    "city": "Jyv\u00e4skyl\u00e4",
    "address": " Keskussairaalantie 19, 40620 Jyv\u00e4skyl\u00e4",
    "hours": {},
    "services": []
  },
  {
    "name": "Kieppi Kokkolan luonnontieteellinen museo",
    "link": "https://museot.fi/museohaku/index.php?museo_id=21355",
    "city": "Kokkola",
    "address": " Pitk\u00e4nsillankatu 26, 67100 Kokkola",
    "hours": {
      "opening_hours": {
        "Ma": "Suljettu",
        "Ti": "Suljettu",
        "Ke": "Suljettu",
        "To": "Suljettu",
        "Pe": "Suljettu",
        "La": "Suljettu",
        "Su": "Suljettu"
      }
    },
    "services": [
      {
        "0": "Oleskelutila istumapaikoilla"
      }
    ]
  },
  {
    "name": "Kihni\u00f6n museo",
    "link": "https://museot.fi/museohaku/index.php?museo_id=21330",
    "city": "Kihni\u00f6",
    "address": " Kuruntie 18, 39820 Kihni\u00f6",
    "hours": {},
    "services": []
  },
  {
    "name": "Kiikalan kotiseutumuseo",
    "link": "https://museot.fi/museohaku/index.php?museo_id=21333",
    "city": "Salo",
    "address": " Porvarinpolku 10, 25390 Kiikala",
    "hours": {
      "Ma": "Suljettu",
      "Ti": "Suljettu",
      "Ke": "Suljettu",
      "To": "Suljettu",
      "Pe": "Suljettu",
      "La": "Suljettu",
      "Su": "12:00-15:00"
    },
    "services": [
      {
        "0": "Pys\u00e4k\u00f6intipaikka"
      }
    ]
  },
  {
    "name": "Kiskon kotiseutumuseo",
    "link": "https://museot.fi/museohaku/index.php?museo_id=21344",
    "city": "Salo",
    "address": " Kirkonkyl\u00e4ntie 30, 25470 Kisko",
    "hours": {
      "Ma": "Suljettu",
      "Ti": "Suljettu",
      "Ke": "Suljettu",
      "To": "Suljettu",
      "Pe": "Suljettu",
      "La": "12:00-15:00",
      "Su": "12:00-15:00"
    },
    "services": []
  },
  {
    "name": "Kiuruveden kotiseutumuseo",
    "link": "https://museot.fi/museohaku/index.php?museo_id=21348",
    "city": "Kiuruvesi",
    "address": " Kirkkoharjuntie 2, 74700 Kiuruvesi",
    "hours": {},
    "services": []
  },
  {
    "name": "Kodisjoen kotiseutumuseo",
    "link": "https://museot.fi/museohaku/index.php?museo_id=21349",
    "city": "Rauma",
    "address": " Laitilantie 10,  27310 Kodisjoki",
    "hours": {},
    "services": []
  },
  {
    "name": "Korteniemen perinnetila",
    "link": "https://museot.fi/museohaku/index.php?museo_id=9028",
    "city": "Tammela",
    "address": " Liesj\u00e4rven kansallispuisto, Korteniementie 270, 31350 Liesj\u00e4rvi",
    "hours": {
      "Ma": "Suljettu",
      "Ti": "Suljettu",
      "Ke": "Suljettu",
      "To": "Suljettu",
      "Pe": "Suljettu",
      "La": "Suljettu",
      "Su": "Suljettu"
    },
    "services": [
      {
        "0": "Pys\u00e4k\u00f6intipaikka"
      }
    ]
  },
  {
    "name": "Korvenkyl\u00e4n Alinen Mylly",
    "link": "https://museot.fi/museohaku/index.php?museo_id=21806",
    "city": "S\u00e4kyl\u00e4",
    "address": " Korventie 89, 27800 S\u00e4kyl\u00e4",
    "hours": {},
    "services": []
  },
  {
    "name": "Koskenjalan Kenk\u00e4- ja Nahkamuseo",
    "link": "https://museot.fi/museohaku/index.php?museo_id=21244",
    "city": "Juupajoki",
    "address": " Koskitie 43, 35500 Korkeakoski",
    "hours": {},
    "services": []
  },
  {
    "name": "Kreivinm\u00e4en ulkomuseo",
    "link": "https://museot.fi/museohaku/index.php?museo_id=21058",
    "city": "Salo",
    "address": " Viurilantie 34, 24910 Halikko as",
    "hours": {
      "Ma": "Suljettu",
      "Ti": "Suljettu",
      "Ke": "Suljettu",
      "To": "Suljettu",
      "Pe": "Suljettu",
      "La": "Suljettu",
      "Su": "Suljettu"
    },
    "services": [
      {
        "0": "Historia"
      },
      {
        "1": "Kotimuseot ja talomuseot"
      },
      {
        "2": "Linnat ja ulkomuseot"
      },
      {
        "3": "Luonto ja el\u00e4imet"
      },
      {
        "4": "Satoja vuosia sitten"
      }
    ]
  },
  {
    "name": "Kr\u00e5k\u00f6 b\u00e5tbyggarmuseum (Kr\u00e5k\u00f6n veneenrakentajainmuseo)",
    "link": "https://museot.fi/museohaku/index.php?museo_id=21675",
    "city": "Porvoo",
    "address": " Kr\u00e5k\u00f6sv\u00e4ngen 240, 07410 Kr\u00e5k\u00f6",
    "hours": {},
    "services": []
  },
  {
    "name": "Kuhmalahden kotiseutumuseo",
    "link": "https://museot.fi/museohaku/index.php?museo_id=21391",
    "city": "Kuhmalahti",
    "address": " Kirkkotie 11, 36810 Kuhmalahti",
    "hours": {},
    "services": []
  },
  {
    "name": "Kuralan Kyl\u00e4m\u00e4ki",
    "link": "https://museot.fi/museohaku/index.php?museo_id=21861",
    "city": "Turku",
    "address": " Jaanintie 45, 20540 Turku",
    "hours": {
      "Ma": "Suljettu",
      "Ti": "10:00-18:00",
      "Ke": "10:00-18:00",
      "To": "10:00-18:00",
      "Pe": "10:00-18:00",
      "La": "10:00-18:00",
      "Su": "10:00-18:00"
    },
    "services": [
      {
        "0": "Kahvila"
      },
      {
        "1": "Lastenhoitotila"
      },
      {
        "2": "Leikkitila/tila perheille"
      },
      {
        "3": "Museokauppa"
      },
      {
        "4": "Pys\u00e4k\u00f6intipaikka"
      }
    ]
  },
  {
    "name": "Kurun ulkomuseo, Kurun koulumuseo",
    "link": "https://museot.fi/museohaku/index.php?museo_id=29118",
    "city": "Yl\u00f6j\u00e4rvi",
    "address": " Myllym\u00e4entie 2, 34300 Kuru",
    "hours": {},
    "services": []
  },
  {
    "name": "Kurun ulkomuseo, V\u00e4nrikki Stoolin tupa",
    "link": "https://museot.fi/museohaku/index.php?museo_id=21412",
    "city": "Yl\u00f6j\u00e4rvi",
    "address": " Pokeluksentie 100, 34300 Kuru ",
    "hours": {},
    "services": []
  },
  {
    "name": "Laivapatruunin koti ja Soveliuksen talon n\u00e4yttelytila",
    "link": "https://museot.fi/museohaku/index.php?museo_id=22006",
    "city": "Raahe",
    "address": " Rantakatu 36, 92100 Raahe",
    "hours": {
      "Ma": "Suljettu",
      "Ti": "Suljettu",
      "Ke": "Suljettu",
      "To": "Suljettu",
      "Pe": "Suljettu",
      "La": "Suljettu",
      "Su": "Suljettu"
    },
    "services": [
      {
        "0": "Myyntipiste"
      },
      {
        "1": "Pys\u00e4k\u00f6intipaikka"
      }
    ]
  },
  {
    "name": "Lapuan Patruunatehtaan museo",
    "link": "https://museot.fi/museohaku/index.php?museo_id=22192",
    "city": "Lapua",
    "address": " Kulttuurikeskus Vanha Paukku, Vanhan Paukun tie 1, 62100 Lapua",
    "hours": {
      "Ma": "11:00-19:00",
      "Ti": "11:00-19:00",
      "Ke": "11:00-19:00",
      "To": "11:00-19:00",
      "Pe": "11:00-19:00",
      "La": "11:00-15:00",
      "Su": "Suljettu"
    },
    "services": [
      {
        "0": "Oleskelutila istumapaikoilla"
      },
      {
        "1": "Pys\u00e4k\u00f6intipaikka"
      }
    ]
  },
  {
    "name": "Lepp\u00e4virran kotiseutumuseo",
    "link": "https://museot.fi/museohaku/index.php?museo_id=21470",
    "city": "Lepp\u00e4virta",
    "address": " Savonkatu 28, 79100 Lepp\u00e4virta",
    "hours": {
      "Ma": "Suljettu",
      "Ti": "Suljettu",
      "Ke": "Suljettu",
      "To": "Suljettu",
      "Pe": "Suljettu",
      "La": "Suljettu",
      "Su": "Suljettu"
    },
    "services": [
      {
        "0": "Myyntipiste"
      }
    ]
  },
  {
    "name": "Liedon museo: Tarvasjoen kotiseutumuseo",
    "link": "https://museot.fi/museohaku/index.php?museo_id=21839",
    "city": "Lieto",
    "address": " Kyr\u00f6ntie 25, 21450 Tarvasjoki",
    "hours": {
      "Ma": "Suljettu",
      "Ti": "Suljettu",
      "Ke": "Suljettu",
      "To": "Suljettu",
      "Pe": "Suljettu",
      "La": "Suljettu",
      "Su": "11:00-15:00"
    },
    "services": [
      {
        "0": "Kahvila"
      },
      {
        "1": "Myyntipiste"
      },
      {
        "2": "Pys\u00e4k\u00f6intipaikka"
      }
    ]
  },
  {
    "name": "L\u00e4ngelm\u00e4en pellavamuseo",
    "link": "https://museot.fi/museohaku/index.php?museo_id=21500",
    "city": "J\u00e4ms\u00e4",
    "address": " L\u00e4nkipohjantie 190, 35400 L\u00e4nkipohja",
    "hours": {},
    "services": []
  },
  {
    "name": "Mannerheimin salonkivaunu",
    "link": "https://museot.fi/museohaku/index.php?museo_id=80218",
    "city": "Mikkeli",
    "address": " Rautatieasema, Mannerheimintie 1 , 50100 Mikkeli",
    "hours": {
      "Ma": "Suljettu",
      "Ti": "Suljettu",
      "Ke": "Suljettu",
      "To": "Suljettu",
      "Pe": "Suljettu",
      "La": "Suljettu",
      "Su": "Suljettu"
    },
    "services": [
      {
        "0": "Pys\u00e4k\u00f6intipaikka"
      }
    ]
  },
  {
    "name": "Merikarvian kalastusmuseo",
    "link": "https://museot.fi/museohaku/index.php?museo_id=21518",
    "city": "Merikarvia",
    "address": " Palosaarentie 56, 29900 Merikarvia",
    "hours": {},
    "services": []
  },
  {
    "name": "Merimiehenkotimuseo",
    "link": "https://museot.fi/museohaku/index.php?museo_id=21601",
    "city": "Oulu",
    "address": " Pikisaarentie 6, 90100 Oulu",
    "hours": {
      "Ma": "Suljettu",
      "Ti": "Suljettu",
      "Ke": "Suljettu",
      "To": "Suljettu",
      "Pe": "Suljettu",
      "La": "Suljettu",
      "Su": "Suljettu"
    },
    "services": [
      {
        "0": "Kokoushuone"
      },
      {
        "1": "Myyntipiste"
      }
    ]
  },
  {
    "name": "Meritalon museo",
    "link": "https://museot.fi/museohaku/index.php?museo_id=22130",
    "city": "Salo",
    "address": " Moisionkatu 18, 24100 Salo",
    "hours": {
      "Ma": "Suljettu",
      "Ti": "Suljettu",
      "Ke": "12:00-16:00",
      "To": "12:00-16:00",
      "Pe": "12:00-16:00",
      "La": "12:00-16:00",
      "Su": "12:00-16:00"
    },
    "services": [
      {
        "0": "Pys\u00e4k\u00f6intipaikka"
      }
    ]
  },
  {
    "name": "Muonion kotiseutumuseo",
    "link": "https://museot.fi/museohaku/index.php?museo_id=21534",
    "city": "Muonio",
    "address": " Lahenrannantie, 99300 Muonio",
    "hours": {},
    "services": []
  },
  {
    "name": "Muuritutkimus Oy",
    "link": "https://museot.fi/museohaku/index.php?museo_id=20519",
    "city": "Turku",
    "address": " Infokontti, Turun kauppatori",
    "hours": {},
    "services": []
  },
  {
    "name": "Myrskyl\u00e4n kotiseutumuseo",
    "link": "https://museot.fi/museohaku/index.php?museo_id=21546",
    "city": "Myrskyl\u00e4",
    "address": " Keskustie 5, 07600 Myrskyl\u00e4",
    "hours": {},
    "services": []
  },
  {
    "name": "Nakkilan kotiseutumuseo, Juustomeijerimuseo",
    "link": "https://museot.fi/museohaku/index.php?museo_id=21554",
    "city": "Nakkila",
    "address": " 29250 Nakkila",
    "hours": {},
    "services": []
  },
  {
    "name": "Niitynp\u00e4\u00e4n ty\u00f6l\u00e4iskotimuseo",
    "link": "https://museot.fi/museohaku/index.php?museo_id=21254",
    "city": "Jyv\u00e4skyl\u00e4",
    "address": " Museopolku 1, Vaajakoski, Jyv\u00e4skyl\u00e4",
    "hours": {
      "Ma": "Suljettu",
      "Ti": "Suljettu",
      "Ke": "Suljettu",
      "To": "12:30-15:00",
      "Pe": "Suljettu",
      "La": "Suljettu",
      "Su": "Suljettu"
    },
    "services": []
  },
  {
    "name": "Nuijamaan museo",
    "link": "https://museot.fi/museohaku/index.php?museo_id=21565",
    "city": "Lappeenranta",
    "address": " Tassiantie 4, 54230 Nuijamaa",
    "hours": {},
    "services": []
  },
  {
    "name": "N\u00e4k\u00f6vammaismuseo",
    "link": "https://museot.fi/museohaku/index.php?museo_id=21155",
    "city": "Helsinki",
    "address": " Marjaniementie 74, 00930 Helsinki",
    "hours": {
      "Ma": "12:00-15:00",
      "Ti": "12:00-15:00",
      "Ke": "12:00-15:00",
      "To": "Suljettu",
      "Pe": "Suljettu",
      "La": "Suljettu",
      "Su": "Suljettu"
    },
    "services": [
      {
        "0": "Esteet\u00f6n sis\u00e4\u00e4np\u00e4\u00e4sy"
      },
      {
        "1": "Esteet\u00f6n wc"
      },
      {
        "2": "Induktiosilmukka"
      },
      {
        "3": "Invapys\u00e4k\u00f6inti"
      },
      {
        "4": "Kosketeltavia esineit\u00e4"
      },
      {
        "5": "Lainattava py\u00f6r\u00e4tuoli"
      },
      {
        "6": "Tilattavissa opastuksia erityisryhmille"
      }
    ]
  },
  {
    "name": "Osuuspankkimuseo",
    "link": "https://museot.fi/museohaku/index.php?museo_id=21119",
    "city": "Helsinki",
    "address": " Teollisuuskatu 1 F, 00510 Helsinki",
    "hours": {},
    "services": []
  },
  {
    "name": "Oulunsalon kotiseutumuseo",
    "link": "https://museot.fi/museohaku/index.php?museo_id=21602",
    "city": "Oulu",
    "address": " J\u00e4\u00e4sk\u00f6ntie 5, 90460 Oulunsalo",
    "hours": {
      "Ma": "Suljettu",
      "Ti": "Suljettu",
      "Ke": "Suljettu",
      "To": "Suljettu",
      "Pe": "Suljettu",
      "La": "Suljettu",
      "Su": "Suljettu"
    },
    "services": [
      {
        "0": "Esteet\u00f6n sis\u00e4\u00e4np\u00e4\u00e4sy osaan tiloista: Pirttiin."
      },
      {
        "1": "Invapys\u00e4k\u00f6inti"
      },
      {
        "2": "Kosketeltavia esineit\u00e4"
      }
    ]
  },
  {
    "name": "Panssarimuseo",
    "link": "https://museot.fi/museohaku/index.php?museo_id=21073",
    "city": "Hattula",
    "address": " Hattulantie 334, 13700 Parolannummi",
    "hours": {
      "Ma": "10:00-15:00",
      "Ti": "10:00-15:00",
      "Ke": "10:00-15:00",
      "To": "10:00-15:00",
      "Pe": "10:00-15:00",
      "La": "10:00-15:00",
      "Su": "10:00-15:00"
    },
    "services": [
      {
        "0": "Kahvila"
      },
      {
        "1": "Myyntipiste"
      },
      {
        "2": "Pys\u00e4k\u00f6intipaikka"
      }
    ]
  },
  {
    "name": "Parikkalan kotiseutumuseo Hauta-Ollin m\u00f6kki ja meijerimuseo",
    "link": "https://museot.fi/museohaku/index.php?museo_id=21615",
    "city": "Parikkala",
    "address": " Kirkkokatu 6, 59100 Parikkala",
    "hours": {},
    "services": []
  },
  {
    "name": "Perni\u00f6n museo",
    "link": "https://museot.fi/museohaku/index.php?museo_id=21629",
    "city": "Salo",
    "address": " Museotie 9, 25500 Perni\u00f6",
    "hours": {
      "Ma": "Suljettu",
      "Ti": "Suljettu",
      "Ke": "Suljettu",
      "To": "Suljettu",
      "Pe": "Suljettu",
      "La": "Suljettu",
      "Su": "Suljettu"
    },
    "services": [
      {
        "0": "Pys\u00e4k\u00f6intipaikka"
      }
    ]
  },
  {
    "name": "Pihlajaveden kotiseutumuseo",
    "link": "https://museot.fi/museohaku/index.php?museo_id=21653",
    "city": "Keuruu",
    "address": " Koipikankaantie 1450, 42910 Pihlajavesi",
    "hours": {},
    "services": []
  },
  {
    "name": "Pomarkun kotiseutumuseo",
    "link": "https://museot.fi/museohaku/index.php?museo_id=21663",
    "city": "Pomarkku",
    "address": " Koulutie 2,  29630 Pomarkku",
    "hours": {},
    "services": []
  },
  {
    "name": "Pornaisten seurakunnan museo",
    "link": "https://museot.fi/museohaku/index.php?museo_id=22147",
    "city": "Pornainen",
    "address": " Kirkkotie 138, 07170 Pornainen",
    "hours": {},
    "services": []
  },
  {
    "name": "P\u00e4iv\u00e4lehden museo",
    "link": "https://museot.fi/museohaku/index.php?museo_id=22033",
    "city": "Helsinki",
    "address": " Ludviginkatu 2-4, 00130 Helsinki",
    "hours": {},
    "services": []
  },
  {
    "name": "Ranuan pappila- ja pit\u00e4j\u00e4museo",
    "link": "https://museot.fi/museohaku/index.php?museo_id=21703",
    "city": "Ranua",
    "address": " Pappilantie 11, 97700 Ranua",
    "hours": {},
    "services": []
  },
  {
    "name": "Riihimuseo",
    "link": "https://museot.fi/museohaku/index.php?museo_id=21633",
    "city": "Sein\u00e4joki",
    "address": " Kannontie, 61100 Per\u00e4sein\u00e4joki",
    "hours": {
      "opening_hours": {
        "Ma": "Suljettu",
        "Ti": "Suljettu",
        "Ke": "Suljettu",
        "To": "Suljettu",
        "Pe": "Suljettu",
        "La": "Suljettu",
        "Su": "Suljettu"
      }
    },
    "services": []
  },
  {
    "name": "Ronttism\u00e4en tehtaalaismuseo",
    "link": "https://museot.fi/museohaku/index.php?museo_id=21051",
    "city": "Forssa",
    "address": " II linja 5-7, 30100 Forssa",
    "hours": {
      "Ma": "Suljettu",
      "Ti": "Suljettu",
      "Ke": "Suljettu",
      "To": "Suljettu",
      "Pe": "Suljettu",
      "La": "Suljettu",
      "Su": "Suljettu"
    },
    "services": [
      {
        "0": "Pys\u00e4k\u00f6intipaikka"
      }
    ]
  },
  {
    "name": "Sairaalamuseo",
    "link": "https://museot.fi/museohaku/index.php?museo_id=21820",
    "city": "Raasepori",
    "address": " V\u00e4stra Nylandssukhus/L\u00e4nsi-Uudenmaan sairaalamuseo, \u00d6stra Strandgatan 9/ It\u00e4inen Rantakatu 9",
    "hours": {},
    "services": []
  },
  {
    "name": "Salon historiallinen museo SAMU",
    "link": "https://museot.fi/museohaku/index.php?museo_id=9005",
    "city": "Salo",
    "address": " Salorankatu 5-7, 24240 Salo",
    "hours": {
      "Ma": "Suljettu",
      "Ti": "Suljettu",
      "Ke": "Suljettu",
      "To": "11:00-17:00",
      "Pe": "11:00-17:00",
      "La": "11:00-15:00",
      "Su": "Suljettu"
    },
    "services": [
      {
        "0": "Pys\u00e4k\u00f6intipaikka"
      }
    ]
  },
  {
    "name": "Sievin kotiseutumuseo",
    "link": "https://museot.fi/museohaku/index.php?museo_id=21761",
    "city": "Sievi",
    "address": " Haikolantie 44, 85410 Sievi",
    "hours": {},
    "services": []
  },
  {
    "name": "Sodankyl\u00e4n kotiseutumuseo",
    "link": "https://museot.fi/museohaku/index.php?museo_id=21774",
    "city": "Sodankyl\u00e4",
    "address": " Hampput\u00f6rm\u00e4ntie 20, 99601 Sodankyl\u00e4",
    "hours": {},
    "services": []
  },
  {
    "name": "Str\u00f6mforsin pajamuseo",
    "link": "https://museot.fi/museohaku/index.php?museo_id=21733",
    "city": "Loviisa",
    "address": " Ruukintie 11 A, 07970 Ruotsinpyht\u00e4\u00e4",
    "hours": {
      "Ma": "11:00-17:00",
      "Ti": "11:00-17:00",
      "Ke": "11:00-17:00",
      "To": "11:00-17:00",
      "Pe": "11:00-17:00",
      "La": "11:00-17:00",
      "Su": "11:00-17:00"
    },
    "services": [
      {
        "0": "Kahvila"
      },
      {
        "1": "Myyntipiste"
      },
      {
        "2": "Pys\u00e4k\u00f6intipaikka"
      },
      {
        "3": "Ravintola"
      }
    ]
  },
  {
    "name": "Suomusj\u00e4rven kotiseutumuseo",
    "link": "https://museot.fi/museohaku/index.php?museo_id=21794",
    "city": "Salo",
    "address": " Karjalohjantie 161-2, 25410 Suomusj\u00e4rvi",
    "hours": {
      "Ma": "Suljettu",
      "Ti": "Suljettu",
      "Ke": "Suljettu",
      "To": "Suljettu",
      "Pe": "Suljettu",
      "La": "11:00-14:00",
      "Su": "11:00-14:00"
    },
    "services": [
      {
        "0": "Pys\u00e4k\u00f6intipaikka"
      }
    ]
  },
  {
    "name": "Taaborinvuoren museoalue",
    "link": "https://museot.fi/museohaku/index.php?museo_id=22165",
    "city": "Nurmij\u00e4rvi",
    "address": " Koulunkulmantie 34, 01940 Palojoki ",
    "hours": {
      "opening_hours": {
        "Ma": "Suljettu",
        "Ti": "Suljettu",
        "Ke": "Suljettu",
        "To": "Suljettu",
        "Pe": "Suljettu",
        "La": "Suljettu",
        "Su": "Suljettu"
      }
    },
    "services": [
      {
        "0": "Pys\u00e4k\u00f6intipaikka"
      }
    ]
  },
  {
    "name": "Taidekeskus J\u00e4rvilinna",
    "link": "https://museot.fi/museohaku/index.php?museo_id=9069",
    "city": "Laukaa",
    "address": " J\u00e4rvilinnantie 213, 41330 ",
    "hours": {
      "Ma": "Suljettu",
      "Ti": "Suljettu",
      "Ke": "12:00-17:00",
      "To": "12:00-17:00",
      "Pe": "12:00-17:00",
      "La": "12:00-17:00",
      "Su": "12:00-17:00"
    },
    "services": [
      {
        "0": "Kahvila"
      },
      {
        "1": "Myyntipiste"
      },
      {
        "2": "Pys\u00e4k\u00f6intipaikka"
      }
    ]
  },
  {
    "name": "Taivalkosken kotiseutumuseo",
    "link": "https://museot.fi/museohaku/index.php?museo_id=21809",
    "city": "Taivalkoski",
    "address": " Rantatie 3, 93400 Taivalkoski",
    "hours": {},
    "services": []
  },
  {
    "name": "Tenholan kotiseutumuseo",
    "link": "https://museot.fi/museohaku/index.php?museo_id=21818",
    "city": "Raasepori",
    "address": " Pit\u00e4j\u00e4ntie 7, 10520 Tenhola",
    "hours": {},
    "services": []
  },
  {
    "name": "Tervaj\u00e4rven talomuseo",
    "link": "https://museot.fi/museohaku/index.php?museo_id=21783",
    "city": "Sotkamo",
    "address": " Tervaj\u00e4rventie 16, 88600 Sotkamo",
    "hours": {},
    "services": []
  },
  {
    "name": "Tullimuseo",
    "link": "https://museot.fi/museohaku/index.php?museo_id=21154",
    "city": "Helsinki",
    "address": " Susisaari, Suomenlinna B 20 D, 00190 Helsinki",
    "hours": {
      "Ma": "Suljettu",
      "Ti": "12:30-17:30",
      "Ke": "12:30-17:30",
      "To": "12:30-17:30",
      "Pe": "12:30-17:30",
      "La": "12:30-17:30",
      "Su": "12:30-17:30"
    },
    "services": [
      {
        "0": "Myyntipiste"
      }
    ]
  },
  {
    "name": "Turun vesilaitosmuseo",
    "link": "https://museot.fi/museohaku/index.php?museo_id=9023",
    "city": "Turku",
    "address": " Halistentie 4, 20540 Turku ",
    "hours": {},
    "services": []
  },
  {
    "name": "Valmarin museo",
    "link": "https://museot.fi/museohaku/index.php?museo_id=21316",
    "city": "Keminmaa",
    "address": " Jokisuuntie 79, 94450 Keminmaa",
    "hours": {},
    "services": []
  },
  {
    "name": "Vampulan kotiseutumuseo",
    "link": "https://museot.fi/museohaku/index.php?museo_id=21919",
    "city": "Huittinen",
    "address": " Soinilantie 22, 32610 Vampula",
    "hours": {},
    "services": []
  },
  {
    "name": "Varistaipaleen kanavamuseo",
    "link": "https://museot.fi/museohaku/index.php?museo_id=21088",
    "city": "Hein\u00e4vesi",
    "address": " V\u00e4yl\u00e4asemantie 2 A Varistaipale",
    "hours": {},
    "services": []
  },
  {
    "name": "Virtasalmen kotiseutumuseo",
    "link": "https://museot.fi/museohaku/index.php?museo_id=21952",
    "city": "Pieks\u00e4m\u00e4ki",
    "address": " 77330 Virtasalmi",
    "hours": {},
    "services": []
  },
  {
    "name": "Ylih\u00e4rm\u00e4n kotiseutumuseo",
    "link": "https://museot.fi/museohaku/index.php?museo_id=21961",
    "city": "Kauhava",
    "address": " Rannanj\u00e4rventie 16, 62375 Kauhava",
    "hours": {
      "Ma": "Suljettu",
      "Ti": "Suljettu",
      "Ke": "Suljettu",
      "To": "Suljettu",
      "Pe": "Suljettu",
      "La": "Suljettu",
      "Su": "Suljettu"
    },
    "services": [
      {
        "0": "Pys\u00e4k\u00f6intipaikka"
      }
    ]
  },
  {
    "name": "Yl\u00f6j\u00e4rven kotiseutumuseo",
    "link": "https://museot.fi/museohaku/index.php?museo_id=22188",
    "city": "Yl\u00f6j\u00e4rvi",
    "address": " Hietastentie 4, 33480 Yl\u00f6j\u00e4rvi",
    "hours": {},
    "services": []
  },
  {
    "name": "Yrj\u00f6 A. J\u00e4ntin taidekokoelma",
    "link": "https://museot.fi/museohaku/index.php?museo_id=22189",
    "city": "Porvoo",
    "address": " L\u00e4ntinen Aleksanterinkatu 1, 06100 Porvoo",
    "hours": {},
    "services": []
  }
]
